City_ID,City,Lat,Lng,Max Temp,Humidity,Cloudiness,Wind Speed,Country,Date
0,iqaluit,63.7506,-68.5145,-1.15,100,75,0.0,CA,1682483413
1,badarpur,24.9,92.6,35.58,27,16,1.85,IN,1682483643
2,urengoy,65.9667,78.3667,-3.28,80,6,3.31,RU,1682483644
3,saint-leu,-21.15,55.2833,27.75,85,8,2.91,RE,1682483645
4,fuerte olimpo,-21.0415,-57.8738,20.9,98,47,1.36,PY,1682483645
5,badger,64.8,-147.5333,3.95,42,75,4.63,US,1682483647
6,aasiaat,68.7098,-52.8699,-0.28,99,100,2.98,GL,1682483537
7,polyarnyy,69.1989,33.4478,-2.92,81,75,1.33,RU,1682483648
8,woolgoolga,-30.1106,153.2007,21.93,58,81,5.32,AU,1682483649
9,blackmans bay,-43.0167,147.3167,22.51,46,4,2.21,AU,1682483512
10,port-aux-francais,-49.35,70.2167,6.79,95,95,10.08,TF,1682483544
11,vila velha,-20.3297,-40.2925,22.19,97,75,1.54,BR,1682483650
12,adamstown,-25.066,-130.1015,24.75,72,5,4.87,PN,1682483524
13,iskateley,67.6803,53.1512,-3.38,92,10,5.25,RU,1682483652
14,ashland,40.8167,-82.2665,4.53,94,100,1.97,US,1682483653
15,utrik,11.2278,169.8474,27.06,80,90,9.72,MH,1682483654
16,port alfred,-33.5906,26.891,20.1,97,84,0.45,ZA,1682483654
17,berezovyy,51.6667,135.7,4.41,72,100,0.97,RU,1682483655
18,nar'yan-mar,67.6713,53.087,-3.31,92,10,5.26,RU,1682483656
19,tsiombe,-25.3,45.4833,21.07,65,9,0.44,MG,1682483657
20,east london,-33.0153,27.9116,21.52,94,100,2.57,ZA,1682483657
21,mata-utu,-13.2816,-176.1745,28.08,75,71,3.14,WF,1682483658
22,lihue,21.9789,-159.3672,25.58,74,75,5.66,US,1682483512
23,vadso,70.0744,29.7487,-0.91,74,0,3.09,NO,1682483659
24,buala,-8.145,159.5921,28.4,77,76,1.84,SB,1682483660
25,grytviken,-54.2811,-36.5092,1.68,86,52,6.68,GS,1682483540
26,yellowknife,62.456,-114.3525,1.29,100,100,3.6,CA,1682483513
27,six-fours-les-plages,43.0938,5.84,14.69,29,43,0.89,FR,1682483662
28,ngama,11.7833,17.1667,28.84,22,45,2.19,TD,1682483663
29,veraval,20.9,70.3667,30.05,55,26,4.24,IN,1682483663
30,albany,42.6001,-73.9662,4.34,81,1,0.89,US,1682483372
31,edinburgh of the seven seas,-37.0676,-12.3116,15.06,66,83,12.4,SH,1682483665
32,zaoyang,32.1272,112.7542,23.63,46,58,5.04,CN,1682483665
33,isla del bosque,22.7333,-105.85,21.08,75,88,0.92,MX,1682483666
34,i-n-salah,27.1935,2.4607,24.03,19,0,5.53,DZ,1682483667
35,tura,25.5198,90.2201,33.41,23,58,2.72,IN,1682483667
36,papatowai,-46.5619,169.4708,12.57,69,92,5.97,NZ,1682483668
37,derventa,44.9772,17.9103,7.86,89,100,2.37,BA,1682483669
38,pudasjarvi,65.3833,26.9167,1.2,100,100,4.38,FI,1682483670
39,thompson,55.7435,-97.8558,3.09,44,40,1.54,CA,1682483518
40,waitangi,-43.9535,-176.5597,9.9,79,77,1.79,NZ,1682483553
41,whitehorse,60.7161,-135.0538,2.43,40,100,4.47,CA,1682483488
42,tiksi,71.6872,128.8694,-8.47,88,93,1.77,RU,1682483672
43,talnakh,69.4865,88.3972,-0.44,96,100,2.13,RU,1682483522
44,tidjikja,18.5564,-11.4271,28.7,12,2,4.64,MR,1682483674
45,fort irwin,35.2627,-116.6848,21.9,10,0,3.6,US,1682483674
46,west island,-12.1568,96.8225,28.99,74,75,8.23,CC,1682483675
47,kodiak,57.79,-152.4072,2.73,93,100,3.09,US,1682483529
48,ilulissat,69.2167,-51.1,0.01,100,100,4.63,GL,1682483560
49,sarandi,-23.4436,-51.8739,16.75,100,40,3.09,BR,1682483520
50,port mathurin,-19.6833,63.4167,25.99,81,9,7.19,MU,1682483563
51,soe,-9.8607,124.284,24.61,74,69,3.78,ID,1682483678
52,hamilton,39.1834,-84.5333,11.52,70,100,0.0,US,1682483516
53,kulhudhuffushi,6.6221,73.07,29.04,69,56,3.37,MV,1682483679
54,malango,-2.9627,119.9001,26.68,78,76,0.81,ID,1682483680
55,gazojak,41.1875,61.4036,23.49,18,36,9.68,TM,1682483680
56,fort st. john,56.2499,-120.8529,1.94,75,75,1.03,CA,1682483546
57,bredasdorp,-34.5322,20.0403,13.34,91,92,1.3,ZA,1682483682
58,sumbawa besar,-8.5,117.4333,29.76,82,83,2.47,ID,1682483682
59,avarua,-21.2078,-159.775,26.03,69,100,2.57,CK,1682483518
60,nili,33.7218,66.1302,18.29,26,33,1.47,AF,1682483684
61,ixtapa,20.7,-105.2,23.57,83,40,1.54,MX,1682483685
62,tadine,-21.55,167.8833,25.58,75,100,2.84,NC,1682483685
63,haiku-pauwela,20.9219,-156.3051,23.91,84,75,5.14,US,1682483686
64,olonkinbyen,70.9221,-8.7187,-3.46,70,100,5.36,SJ,1682483687
65,pontevedra,42.431,-8.6444,16.19,95,100,1.18,ES,1682483687
66,orange walk,17.8333,-88.8333,22.95,95,73,1.35,BZ,1682483688
67,balkh,36.75,67.0,30.14,17,0,3.08,AF,1682483689
68,bilibino,68.0546,166.4372,-1.32,73,1,0.82,RU,1682483545
69,papao,-17.75,-149.55,27.59,81,100,4.85,PF,1682483690
70,mangaratiba,-22.9597,-44.0406,20.48,82,5,1.88,BR,1682483691
71,orchard homes,46.8633,-114.0484,9.08,53,0,2.06,US,1682483692
72,zouerate,22.7187,-12.4521,28.17,15,1,4.15,MR,1682483692
73,labrador city,52.9463,-66.9114,-2.05,80,0,2.06,CA,1682483693
74,ushuaia,-54.8,-68.3,7.81,57,20,6.17,AR,1682483694
75,taupo,-38.6833,176.0833,14.75,69,45,5.13,NZ,1682483694
76,la passe,45.5549,-0.8967,13.13,97,100,3.28,FR,1682483695
77,nantucket,41.2835,-70.0995,8.06,89,20,0.0,US,1682483696
78,nova olimpia,-14.7972,-57.2881,22.05,94,51,0.74,BR,1682483696
79,ghadamis,30.1337,9.5007,20.53,16,3,3.93,LY,1682483697
80,puerto ayora,-0.7393,-90.3518,24.75,96,74,0.89,EC,1682483698
81,kokopo,-4.352,152.2633,28.93,72,68,2.32,PG,1682483698
82,port elizabeth,-33.918,25.5701,19.06,99,100,1.54,ZA,1682483699
83,karaton,-6.3424,106.1045,31.6,57,99,0.92,ID,1682483700
84,extrema,-22.8547,-46.3183,14.14,93,13,1.79,BR,1682483700
85,betio village,1.358,172.9211,30.02,75,29,4.11,KI,1682483701
86,tamanrasset,22.785,5.5228,17.95,16,0,2.57,DZ,1682483702
87,margaret river,-33.95,115.0667,17.54,72,98,6.23,AU,1682483703
88,bethel,41.3712,-73.414,7.57,77,0,0.0,US,1682483547
89,longyearbyen,78.2186,15.6401,-7.09,73,0,2.06,SJ,1682483704
90,punta arenas,-53.15,-70.9167,6.06,65,75,5.14,CL,1682483552
91,atafu village,-8.5421,-172.5159,29.18,75,67,6.18,TK,1682483705
92,zaranj,30.9667,61.8833,28.98,14,98,1.58,AF,1682483706
93,mogadishu,2.0371,45.3438,27.76,78,99,4.43,SO,1682483539
94,nova sintra,14.8667,-24.7167,20.13,75,3,7.57,CV,1682483549
95,hithadhoo,-0.6,73.0833,29.31,75,100,6.65,MV,1682483708
96,stanley,54.868,-1.6985,0.98,91,100,1.03,GB,1682483709
97,magadan,59.5667,150.8,1.22,73,35,2.11,RU,1682483684
98,lodja,-3.4833,23.4333,20.7,96,100,0.59,CD,1682483710
99,matoury,4.8483,-52.3317,23.98,94,75,0.51,GF,1682483711
100,lospalos,-8.5186,127.0025,27.24,72,99,4.18,TL,1682483711
101,georgetown,5.4112,100.3354,32.96,70,20,4.12,MY,1682483584
102,ribeira grande,38.5167,-28.7,17.1,95,100,6.26,PT,1682483713
103,salalah,17.0151,54.0924,30.05,66,20,2.57,OM,1682483713
104,barra de santo antonio,-9.4047,-35.5072,23.6,85,100,1.17,BR,1682483714
105,lautoka,-17.6167,177.4667,26.92,83,75,4.63,FJ,1682483715
106,rajin,42.2489,130.3003,12.14,44,93,2.32,KP,1682483715
107,afaahiti,-17.75,-149.2833,26.7,84,100,4.89,PF,1682483716
108,qarqaraly,49.4058,75.4742,14.85,36,11,3.64,KZ,1682483717
109,nueva gerona,21.8833,-82.8,25.95,69,35,0.85,CU,1682483718
110,tolanaro,-25.0319,46.9987,19.04,77,20,2.06,MG,1682483718
111,jamestown,42.097,-79.2353,4.77,91,100,1.54,US,1682483631
112,san fernando,15.0286,120.6898,32.85,52,60,3.15,PH,1682483720
113,ulanhot,46.0833,122.0833,16.19,12,43,9.79,CN,1682483720
114,arar,30.9753,41.0381,19.01,42,0,5.14,SA,1682483721
115,xianning,29.8833,114.2167,21.41,52,16,1.36,CN,1682483722
116,vorgashor,67.5833,63.95,-6.12,93,63,6.06,RU,1682483517
117,oamaru,-45.0784,170.9801,12.43,60,18,6.49,NZ,1682483723
118,carnarvon,-24.8667,113.6333,21.96,48,0,6.67,AU,1682483724
119,la'ie,21.6477,-157.9253,26.98,75,96,2.24,US,1682483725
120,makokou,0.5738,12.8642,20.13,99,96,0.96,GA,1682483725
121,kapa'a,22.0752,-159.319,25.99,74,75,5.66,US,1682483726
122,egilsstadir,65.2653,-14.3948,-3.05,86,75,2.06,IS,1682483727
123,enriquillo,17.9,-71.2333,24.33,85,49,1.28,DO,1682483727
124,salinas,36.6777,-121.6555,15.87,70,0,5.14,US,1682483492
125,arraial do cabo,-22.9661,-42.0278,22.92,94,20,3.6,BR,1682483516
126,alice springs,-23.7,133.8833,29.75,26,40,2.57,AU,1682483442
127,pruzhany,52.5567,24.4644,4.18,94,100,8.54,BY,1682483730
128,klerksdorp,-26.8521,26.6667,15.03,53,0,0.6,ZA,1682483731
129,la sarre,48.8002,-79.1996,-0.33,99,99,1.34,CA,1682483731
130,saint-pierre,-21.3393,55.4781,28.09,88,75,2.06,RE,1682483732
131,puerto natales,-51.7236,-72.4875,3.43,85,100,2.32,CL,1682483526
132,lebu,-37.6167,-73.65,14.03,81,100,1.04,CL,1682483539
133,barcelos,41.5388,-8.6151,15.47,94,98,1.27,PT,1682483657
134,luena,-11.7833,19.9167,15.1,94,72,2.06,AO,1682483735
135,porto novo,6.4965,2.6036,26.9,88,100,2.04,BJ,1682483735
136,narva,59.3772,28.1903,11.15,69,11,3.02,EE,1682483736
137,port lincoln,-34.7333,135.8667,25.84,37,98,7.71,AU,1682483737
138,thunder bay,48.4001,-89.3168,-2.01,80,20,13.89,CA,1682483562
139,tosontsengel,48.7567,98.2839,-3.49,21,65,11.4,MN,1682483738
140,sukhinichi,54.0999,35.3425,11.19,73,100,2.6,RU,1682483739
141,peniche,39.3558,-9.3811,14.4,95,54,3.32,PT,1682483740
142,sitka,57.0531,-135.33,6.94,57,100,6.17,US,1682483740
143,walvis bay,-22.9575,14.5053,15.05,94,100,3.6,NA,1682483741
144,isafjordur,66.0755,-23.124,-2.02,65,13,2.35,IS,1682483562
145,basco,20.4487,121.9702,25.28,75,22,4.41,PH,1682483742
146,ust-nera,64.5667,143.2,-0.27,79,30,1.57,RU,1682483541
147,antofagasta,-23.65,-70.4,15.6,83,23,2.78,CL,1682483551
148,luwuk,-0.9516,122.7875,29.81,74,78,1.34,ID,1682483744
149,solnechnyy,50.7214,136.6319,5.01,64,99,1.28,RU,1682483746
150,karatau,43.1667,70.4667,16.15,37,0,9.42,KZ,1682483746
151,oxford,51.7522,-1.256,5.66,84,100,4.12,GB,1682483637
152,mount pearl,47.5166,-52.7813,1.64,95,100,7.2,CA,1682483748
153,uturoa,-16.7333,-151.4333,28.04,75,92,2.84,PF,1682483748
154,hawaiian paradise park,19.5933,-154.9731,24.73,80,20,4.63,US,1682483534
155,jalarpet,12.5667,78.5833,31.78,48,49,2.34,IN,1682483750
156,cannonvale,-20.2833,148.7,23.66,80,60,7.76,AU,1682483750
157,chonchi,-42.6128,-73.8092,10.56,98,100,0.8,CL,1682483751
158,laishevo,55.4046,49.5504,13.12,82,100,6.7,RU,1682483751
159,college,64.8569,-147.8028,3.99,46,75,4.63,US,1682483568
160,kayangel,8.0823,134.7173,28.87,68,6,1.66,PW,1682483753
161,khadan khak,30.7477,67.7085,19.95,21,100,3.01,PK,1682483753
162,price,39.5994,-110.8107,6.18,56,20,2.57,US,1682483754
163,anadyr,64.75,177.4833,-5.0,57,0,9.83,RU,1682483755
164,carnot,4.9409,15.8665,20.92,97,86,1.19,CF,1682483755
165,pisco,-13.7,-76.2167,22.03,83,0,1.03,PE,1682483756
166,tomatlan,19.9333,-105.25,19.86,78,100,0.82,MX,1682483756
167,ust'-kulom,61.6864,53.6902,10.52,75,100,1.78,RU,1682483757
168,carcarana,-32.8568,-61.1533,16.48,94,53,0.38,AR,1682483758
169,keflavik,64.0049,-22.5624,1.24,86,75,4.12,IS,1682483758
170,codrington,-38.2667,141.9667,23.9,44,100,6.21,AU,1682483759
171,kawambwa,-9.7915,29.0791,16.77,90,8,2.68,ZM,1682483760
172,okhotsk,59.3833,143.3,1.37,80,68,3.76,RU,1682483760
173,coahuayana de hidalgo,18.7,-103.6583,22.08,72,99,1.46,MX,1682483532
174,bikenibeu village,1.3673,173.1241,29.98,70,75,2.57,KI,1682483762
175,dudinka,69.4058,86.1778,-0.21,96,100,5.15,RU,1682483762
176,el reno,35.5323,-97.955,10.2,93,100,7.72,US,1682483763
177,yeraliyev,43.2,51.65,16.97,64,100,4.18,KZ,1682483764
178,mpika,-11.8343,31.4529,14.48,92,14,2.19,ZM,1682483764
179,wailua homesteads,22.0669,-159.378,25.24,75,75,5.66,US,1682483548
180,charters towers,-20.1,146.2667,27.1,42,71,5.61,AU,1682483766
181,beaufort west,-32.3567,22.583,15.1,67,54,1.96,ZA,1682483767
182,enewetak,11.3474,162.3373,27.08,84,73,8.94,MH,1682483768
183,qaqortoq,60.7167,-46.0333,0.4,94,96,0.29,GL,1682483769
184,klyuchi,52.2667,79.1667,17.84,39,55,5.75,RU,1682483769
185,faridkot,30.6667,74.75,34.83,14,48,3.0,IN,1682483770
186,mazar-e sharif,36.709,67.1109,29.63,18,0,2.67,AF,1682483770
187,tazacorte,28.629,-17.9293,18.54,71,0,3.09,ES,1682483771
188,mejit,10.2753,170.8646,27.3,79,93,9.35,MH,1682483772
189,fale old settlement,-9.3852,-171.2468,29.17,74,13,5.79,TK,1682483543
190,kavaratti,10.5669,72.642,27.63,70,79,2.93,IN,1682483773
191,kralendijk,12.15,-68.2667,25.99,89,4,4.12,BQ,1682483774
192,hepo,23.4308,115.8299,25.44,56,38,0.88,CN,1682483775
193,namibe,-15.1961,12.1522,24.39,78,63,1.19,AO,1682483776
194,constantia,44.1833,28.65,9.28,83,88,4.21,RO,1682483776
195,saint-joseph,-21.3667,55.6167,27.48,83,29,1.84,RE,1682483777
196,bamboo flat,11.7,92.7167,32.05,70,40,3.6,IN,1682483521
197,airuk,7.2772,168.8203,27.5,78,97,11.21,MH,1682483778
198,hermanus,-34.4187,19.2345,12.11,86,100,3.38,ZA,1682483243
199,watertown,42.3709,-71.1828,8.92,89,100,3.09,US,1682483749
200,taman',45.2117,36.7161,11.38,73,63,4.59,RU,1682483780
201,comodoro rivadavia,-45.8667,-67.5,9.92,87,40,1.03,AR,1682483781
202,alenquer,-1.9417,-54.7383,23.57,95,97,0.95,BR,1682483782
203,la ronge,55.1001,-105.2842,3.14,93,100,5.66,CA,1682483783
204,cabedelo,-6.9811,-34.8339,25.37,89,95,2.84,BR,1682483784
205,st. john's,47.5649,-52.7093,2.1,95,100,7.6,CA,1682483647
206,karema,-6.8205,30.4389,21.33,86,2,2.87,TZ,1682483785
207,churachandpur,24.3333,93.6667,29.71,28,48,2.71,IN,1682483736
208,bilmak,47.3624,36.6511,10.79,74,39,4.16,UA,1682483786
209,manismata,-2.4667,111.0333,32.18,58,73,1.55,ID,1682483787
210,porbandar,21.6422,69.6093,30.99,55,20,5.14,IN,1682483788
211,taoudenni,22.6783,-3.9836,27.49,13,34,4.62,ML,1682483789
212,kalmunai,7.4167,81.8167,30.92,63,87,2.6,LK,1682483790
213,cascais,38.6979,-9.4215,16.39,79,32,8.05,PT,1682483791
214,olinda,-8.0089,-34.8553,24.85,88,75,5.66,BR,1682483791
215,laela,-8.5667,32.05,16.44,94,64,1.52,TZ,1682483792
216,olyokminsk,60.3736,120.4264,4.03,57,100,2.53,RU,1682483719
217,yambol,42.4833,26.5,11.14,100,100,1.03,BG,1682483793
218,emerald,-23.5333,148.1667,27.97,35,35,4.86,AU,1682483506
219,likasi,-10.9814,26.7333,14.65,92,46,1.35,CD,1682483795
220,gumi,36.1136,128.336,16.82,33,49,7.4,KR,1682483796
221,usogorsk,63.4106,48.6872,2.14,99,100,2.71,RU,1682483797
222,puerto baquerizo moreno,-0.9,-89.6,25.61,78,37,2.48,EC,1682483799
223,kattivakkam,13.2167,80.3167,32.82,75,49,4.02,IN,1682483799
224,constitucion,-35.3333,-72.4167,13.83,65,100,3.25,CL,1682483547
225,sines,37.9562,-8.8698,14.05,89,24,3.12,PT,1682483800
226,veseloyarsk,51.2836,81.1056,15.86,45,100,5.57,RU,1682483801
227,quatre cocos,-20.2078,57.7625,26.16,76,10,3.27,MU,1682483802
228,biloela,-24.4167,150.5,28.55,30,0,6.95,AU,1682483803
229,chul'man,56.8479,124.9104,0.14,58,41,0.38,RU,1682483600
230,invercargill,-46.4,168.35,11.68,82,100,0.89,NZ,1682483521
231,masterton,-40.9597,175.6575,16.05,80,98,1.8,NZ,1682483516
232,port douglas,-16.4833,145.4667,26.79,66,48,7.34,AU,1682483806
233,rio gallegos,-51.6226,-69.2181,3.03,87,0,0.51,AR,1682483806
234,cimitarra,6.3142,-73.9497,23.1,95,96,1.28,CO,1682483807
235,shingu,33.7333,135.9833,20.25,69,100,2.94,JP,1682483808
236,luderitz,-26.6481,15.1594,16.8,76,4,2.91,NA,1682483809
237,egersund,58.4513,5.9997,3.94,61,8,8.6,NO,1682483809
238,weifang,36.71,119.1019,19.84,14,0,2.24,CN,1682483810
239,trenggalek,-8.05,111.7167,31.15,63,52,2.04,ID,1682483811
240,turpan,42.9333,89.1667,24.48,16,38,2.83,CN,1682483811
241,mocorito,25.4833,-107.9167,17.89,60,45,0.91,MX,1682483812
242,nuuk,64.1835,-51.7216,0.34,100,100,6.71,GL,1682483813
243,cadale,2.7603,46.3222,28.91,72,100,3.58,SO,1682483813
244,mendoza,-32.8908,-68.8272,14.74,67,0,0.0,AR,1682483814
245,crane,31.3974,-102.3501,19.31,66,8,8.62,US,1682483815
246,al kharijah,25.4514,30.5464,23.59,25,0,2.67,EG,1682483815
247,mariental,-24.6333,17.9667,20.36,58,0,4.75,NA,1682483816
248,quzhou,28.9594,118.8686,21.16,54,8,2.32,CN,1682483816
249,kone,-21.0595,164.8658,25.54,79,100,0.78,NC,1682483817
250,susuman,62.7833,148.1667,-2.07,80,98,0.84,RU,1682483601
251,guerrero negro,27.9769,-114.0611,14.9,81,0,6.01,MX,1682483818
252,yelizovo,53.1873,158.3805,7.08,45,75,8.0,RU,1682483819
253,torata,-17.0769,-70.8433,15.08,60,4,0.42,PE,1682483820
254,mogocha,53.7333,119.7667,5.92,31,79,1.5,RU,1682483820
255,north bend,43.4065,-124.2243,11.07,89,0,5.66,US,1682483821
256,baglung,28.2719,83.5898,26.56,23,65,2.86,NP,1682483821
257,umba,66.6871,34.3429,0.13,77,99,4.56,RU,1682483596
258,ta`u,-14.2336,-169.5144,28.11,72,23,2.52,AS,1682483823
259,ghat,24.9647,10.1728,22.24,24,2,0.49,LY,1682483823
260,ulsteinvik,62.3432,5.8487,2.4,86,100,4.02,NO,1682483824
261,alofi,-19.0595,-169.9187,26.94,78,75,5.66,NU,1682483825
262,livingston,55.9029,-3.5226,2.71,87,0,1.54,GB,1682483595
263,hengchun,22.0042,120.7439,25.61,72,50,10.12,TW,1682483826
264,kapuskasing,49.4169,-82.4331,-1.95,100,100,3.09,CA,1682483552
265,sarangani,5.4033,125.4636,28.94,75,100,8.37,PH,1682483827
266,udachny,66.4167,112.4,-1.97,73,100,5.73,RU,1682483828
267,iraucuba,-3.7461,-39.7833,22.11,96,85,1.78,BR,1682483828
268,shuangyang,43.5242,125.6736,11.88,22,0,3.07,CN,1682483829
269,pacific grove,36.6177,-121.9166,13.82,85,0,0.45,US,1682483552
270,grande prairie,55.1667,-118.8027,3.1,38,40,4.63,CA,1682483779
271,jamsa,61.8642,25.19,7.4,82,11,2.73,FI,1682483832
272,prey veng,11.4868,105.3253,34.0,44,99,0.86,KH,1682483832
273,qui nhon,13.7667,109.2333,28.98,66,75,7.04,VN,1682483833
274,saipan,15.1355,145.701,32.39,100,40,9.77,MP,1682483834
275,obidos,-1.9175,-55.5181,22.64,98,95,0.56,BR,1682483834
276,fukuecho,32.6881,128.8419,17.2,55,20,6.69,JP,1682483835
277,kruisfontein,-34.0033,24.7314,14.61,92,38,1.7,ZA,1682483836
278,karratha,-20.7377,116.8463,30.92,33,92,1.58,AU,1682483577
279,okha,53.5739,142.9478,1.77,88,100,7.46,RU,1682483837
280,kitimat,54.0524,-128.6534,6.62,28,100,1.23,CA,1682483838
281,san matias,-16.3667,-58.4,22.75,88,3,1.35,BO,1682483839
282,krasnoural'sk,58.3638,60.0407,15.33,50,100,2.39,RU,1682483839
283,kingston,17.997,-76.7936,26.53,81,20,3.09,JM,1682483715
284,chui,-33.6971,-53.4616,17.25,95,100,2.06,UY,1682483841
285,bontang,0.1333,117.5,29.57,67,100,2.9,ID,1682483841
286,huangnihe,43.5583,128.0239,11.57,21,2,4.56,CN,1682483842
287,turtas,58.9417,69.1325,13.67,65,54,0.8,RU,1682483843
288,eirunepe,-6.6603,-69.8736,21.61,99,54,0.39,BR,1682483843
289,arzua,42.9333,-8.15,14.81,98,100,0.98,ES,1682483844
290,nemuro,43.3236,145.575,5.31,95,100,15.52,JP,1682483556
291,sieradz,51.5958,18.7302,3.71,84,9,5.7,PL,1682483845
292,el jadid,33.2549,-8.506,18.53,79,5,5.55,MA,1682483846
293,ascencion,31.1,-107.9833,19.51,20,0,9.79,MX,1682483847
294,ghardaia,32.4909,3.6735,22.64,23,0,1.54,DZ,1682483847
295,petropavlovsk-kamchatsky,53.0452,158.6483,5.33,45,75,6.0,RU,1682483390
296,ebon,4.582,168.6964,27.48,80,100,10.35,MH,1682483849
297,gizo,-8.103,156.8419,29.08,70,50,1.07,SB,1682483849
298,poronaysk,49.2167,143.1167,2.92,81,100,6.32,RU,1682483850
299,peterhead,57.5058,-1.7981,0.22,73,31,4.76,GB,1682483851
300,sydney mines,46.2367,-60.2177,2.11,91,20,2.06,CA,1682483851
301,zapala,-38.8992,-70.0544,10.3,46,42,3.46,AR,1682483852
302,arkhangel'sk,64.5401,40.5433,3.06,64,40,5.0,RU,1682483580
303,jinchang,38.4953,102.1739,16.8,21,14,7.55,CN,1682483853
304,trincomalee,8.5711,81.2335,29.51,69,81,3.4,LK,1682483855
305,bell ville,-32.6259,-62.6887,14.81,83,73,2.02,AR,1682483855
306,viedma,-40.8135,-62.9967,18.06,55,99,4.07,AR,1682483856
307,tazovsky,67.4667,78.7,-7.15,86,33,3.56,RU,1682483857
308,luau,-10.7073,22.2247,16.6,84,90,1.65,AO,1682483858
309,happy valley-goose bay,53.3168,-60.3315,2.17,75,20,2.06,CA,1682483858
310,touros,-5.1989,-35.4608,24.55,90,68,4.01,BR,1682483597
311,tralee,52.2704,-9.7026,7.85,96,100,3.7,IE,1682483860
312,diamantino,-14.4086,-56.4461,22.44,83,24,1.3,BR,1682483860
313,marana,32.4367,-111.2254,26.3,20,0,3.6,US,1682483861
314,micheweni,-4.9667,39.8333,27.04,82,99,5.69,TZ,1682483862
315,ambositra,-20.5167,47.25,17.49,82,63,1.15,MG,1682483863
316,nuku'alofa,-21.1333,-175.2,25.19,88,40,4.63,TO,1682483864
317,damara,4.9608,18.7035,22.35,93,100,1.44,CF,1682483864
318,cozumel,20.5083,-86.9458,23.86,89,57,5.23,MX,1682483768
319,acarau,-2.8856,-40.12,24.91,89,89,3.87,BR,1682483866
320,puerto berrio,6.4916,-74.4033,23.46,95,93,0.76,CO,1682483866
321,gereida,11.2811,25.1414,30.27,41,87,8.31,SD,1682483867
322,katsuren-haebaru,26.3369,127.8719,21.43,74,100,5.66,JP,1682483868
323,weligama,5.9667,80.4167,31.47,60,82,1.37,LK,1682483868
324,alaghsas,17.0187,8.0168,28.64,11,4,3.91,NE,1682483870
325,bhiwani,28.7833,76.1333,34.23,14,93,1.95,IN,1682483870
326,abepura,-2.6333,140.5833,27.45,78,40,2.57,ID,1682483871
327,prince george,53.9166,-122.753,7.69,46,100,1.03,CA,1682483596
328,puerto cabezas,14.0351,-83.3888,25.07,80,1,3.89,NI,1682483873
329,mikhaylov,54.2292,39.0186,9.85,98,100,3.82,RU,1682483873
330,bodaybo,57.8506,114.1933,3.82,63,98,1.05,RU,1682483874
331,fortuna,40.5982,-124.1573,11.48,88,8,0.6,US,1682483875
332,zubin potok,42.9144,20.6897,7.36,93,100,2.89,XK,1682483876
333,nichinan,31.6,131.3667,21.82,49,79,5.38,JP,1682483876
334,remire-montjoly,4.9167,-52.2667,24.02,94,75,0.51,GF,1682483877
335,kwakoa,-3.7667,37.7167,21.55,89,99,0.59,TZ,1682483878
336,timmins,48.4669,-81.3331,-1.1,93,100,3.09,CA,1682483782
337,ludington,43.9553,-86.4526,2.27,82,0,2.06,US,1682483879
338,sitia,35.2,26.0986,17.21,74,100,2.37,GR,1682483880
339,iranshahr,27.2025,60.6848,27.19,41,0,0.0,IR,1682483880
340,kirillov,59.863,38.3813,11.61,66,100,2.15,RU,1682483558
341,paris,48.8534,2.3488,6.88,86,0,3.09,FR,1682483362
342,howard springs,-12.497,131.047,33.32,70,96,4.17,AU,1682483882
343,paita,-5.0892,-81.1144,25.86,77,93,2.38,PE,1682483883
344,cottage grove,44.8277,-92.9438,5.13,59,0,3.09,US,1682483818
345,potosi,-19.5836,-65.7531,5.43,25,0,1.2,BO,1682483702
346,rovnoye,50.7765,46.0509,10.09,90,55,6.63,RU,1682483885
347,hong kong,22.2855,114.1577,26.25,65,8,4.02,HK,1682483651
348,cinisi,38.1562,13.1073,17.7,72,40,3.09,IT,1682483886
349,karagay,58.2667,54.9368,14.49,60,100,3.06,RU,1682483887
350,sinjai,-5.1241,120.253,29.85,72,83,3.63,ID,1682483889
351,ceprano,41.5457,13.5147,12.1,83,1,1.72,IT,1682483889
352,kirensk,57.7853,108.1119,7.06,48,57,1.63,RU,1682483890
353,borogontsy,62.6683,131.1683,1.67,92,99,3.54,RU,1682483891
354,karasburg,-28.0167,18.75,18.94,48,1,4.25,NA,1682483891
355,san rafael,-34.6177,-68.3301,18.21,41,91,3.89,AR,1682483892
356,jabor,5.921,169.6434,27.09,81,94,10.94,MH,1682483893
357,qamdo,31.1667,97.2333,0.42,69,95,4.07,CN,1682483894
358,boca do acre,-8.7522,-67.3978,21.92,97,97,0.34,BR,1682483894
359,scottburgh,-30.2867,30.7532,20.17,87,7,2.0,ZA,1682483895
360,ga-rankuwa,-25.6169,27.9947,13.77,57,8,1.96,ZA,1682483896
361,traverse city,44.7631,-85.6206,2.04,84,0,2.06,US,1682483896
362,bardai,11.65,7.2333,27.4,44,99,3.44,NG,1682483897
363,quellon,-43.1167,-73.6167,9.14,100,100,1.54,CL,1682483898
364,forster,-32.1667,152.5167,22.99,58,85,0.89,AU,1682483899
365,castillos,-34.1667,-53.8333,16.01,96,95,1.68,UY,1682483899
366,vila franca do campo,37.7167,-25.4333,17.23,94,50,3.65,PT,1682483900
367,wanning,18.8003,110.3967,26.62,78,81,5.03,CN,1682483901
368,jogeva,58.7467,26.3939,9.38,84,8,1.92,EE,1682483901
369,mathba,22.2855,89.9629,36.17,28,26,1.8,BD,1682483902
370,porto belo,-27.1578,-48.5531,20.65,94,58,2.15,BR,1682483903
371,manor,19.75,72.9167,33.06,41,58,4.49,IN,1682483903
372,corner brook,48.9667,-57.9484,0.09,82,97,3.18,CA,1682483893
373,ouesso,1.6136,16.0517,21.6,98,95,0.94,CG,1682483905
374,glace bay,46.1969,-59.957,1.65,91,20,2.68,CA,1682483886
375,camayenne,9.535,-13.6878,26.55,78,78,3.63,GN,1682483906
376,kenai,60.5544,-151.2583,5.05,71,0,4.63,US,1682483907
377,tolga,34.7222,5.3785,21.45,26,28,4.12,DZ,1682483908
378,grand-bassam,5.2118,-3.7388,28.98,83,100,2.65,CI,1682483908
379,najran,17.4924,44.1277,22.36,39,30,1.3,SA,1682483909
380,nouadhibou,20.931,-17.0347,18.99,82,75,8.23,MR,1682483910
381,patterson,37.4716,-121.1297,21.97,63,5,2.49,US,1682483670
382,fort morgan,40.2503,-103.8,7.37,100,100,7.2,US,1682483911
383,roma,43.2128,-75.4557,4.37,89,0,2.06,US,1682483912
384,nadi,-17.8,177.4167,27.0,83,75,4.63,FJ,1682483913
385,jaru,-10.4389,-62.4664,22.16,98,88,0.09,BR,1682483913
386,margate,51.3813,1.3862,7.72,74,100,0.89,GB,1682483914
387,laguna,38.421,-121.4238,21.99,54,0,3.6,US,1682483915
388,selfoss,63.9331,-20.9971,-1.09,73,92,3.53,IS,1682483916
389,kendari,-3.945,122.4989,28.96,80,70,1.44,ID,1682483917
390,illizi,26.4833,8.4667,23.66,26,93,4.71,DZ,1682483918
391,muncar,-8.4333,114.3333,29.77,72,47,2.79,ID,1682483918
392,tumaco,1.7986,-78.8156,25.67,82,96,0.81,CO,1682483919
393,fyodorovka,53.6314,62.7078,19.87,30,100,6.18,KZ,1682483920
394,boda,4.3189,17.4695,21.83,94,99,1.08,CF,1682483920
395,aral,40.5156,81.2636,21.31,19,83,6.95,CN,1682483921
396,beaconsfield,45.4334,-73.8659,7.08,86,75,3.09,CA,1682483749
397,minas de marcona,-15.2119,-75.1103,16.71,84,31,3.02,PE,1682483922
398,rio grande,-32.035,-52.0986,18.71,95,100,4.61,BR,1682483923
399,camana,-16.6228,-72.7111,20.53,90,23,2.29,PE,1682483924
400,ola,59.5833,151.2833,1.78,72,61,3.01,RU,1682483924
401,murzuq,25.9155,13.9184,21.17,26,0,5.34,LY,1682483925
402,zheleznodorozhnyy,55.7503,38.0042,10.76,92,100,3.31,RU,1682483926
403,chegdomyn,51.1167,133.0167,3.68,68,100,3.07,RU,1682483926
404,karakecili,39.5942,33.3778,12.46,64,100,2.4,TR,1682483927
405,tierralta,8.1736,-76.0592,24.63,90,53,1.51,CO,1682483928
406,canmore,51.0834,-115.3521,9.06,89,78,2.06,CA,1682483637
407,kondapalle,16.6167,80.5333,31.47,48,99,3.21,IN,1682483929
408,saldanha,-33.0117,17.9442,9.03,79,77,2.26,ZA,1682483930
409,ghanzi,-21.5667,21.7833,19.18,48,19,3.3,BW,1682483930
410,kanniyakumari,8.0833,77.5667,30.06,67,31,1.86,IN,1682483931
411,xining,36.6167,101.7667,18.41,10,0,2.68,CN,1682483931
412,novodvinsk,64.4165,40.8122,3.86,87,100,3.69,RU,1682483932
413,halifax,44.6453,-63.5724,4.94,80,38,0.51,CA,1682483559
414,tromso,69.6496,18.957,0.77,59,75,3.6,NO,1682483230
415,yaren,-0.5472,166.916,28.56,75,16,6.12,NR,1682483934
416,holualoa,19.6228,-155.9522,24.91,86,75,2.57,US,1682483935
417,chibougamau,49.9168,-74.3659,0.79,100,100,3.09,CA,1682483935
418,birjand,32.8663,59.2211,23.26,14,0,3.09,IR,1682483936
419,vavozh,56.7751,51.931,11.67,83,100,6.46,RU,1682483937
420,kuqa,41.7278,82.9364,19.09,19,15,0.4,CN,1682483937
421,capao da canoa,-29.7456,-50.0097,20.16,89,100,1.93,BR,1682483938
422,eastham,41.8301,-69.9739,8.11,89,86,0.89,US,1682483939
423,lashio,22.9333,97.75,35.11,21,0,2.18,MM,1682483939
424,awjilah,29.1081,21.2869,20.1,30,0,2.04,LY,1682483940
425,san antonio de pale,-1.4014,5.6325,28.36,75,100,4.77,GQ,1682483940
426,chinsali,-10.5414,32.0816,16.21,92,10,2.4,ZM,1682483941
427,aghsu,40.5703,48.4009,17.67,65,95,2.3,AZ,1682483942
428,aginskoye,51.1,114.53,11.64,15,10,3.41,RU,1682483942
429,vicksburg,32.3526,-90.8779,17.82,54,75,2.57,US,1682483944
430,ulyanovsk,54.0,48.0,12.22,86,100,5.96,RU,1682483944
431,yulinshi,38.2906,109.7494,21.49,25,1,7.7,CN,1682483945
432,jendouba,36.5011,8.7802,12.01,66,20,0.83,TN,1682483946
433,shubarshi,48.5872,57.1869,18.74,30,100,10.19,KZ,1682483947
434,lompoc,34.6391,-120.4579,12.66,95,100,2.06,US,1682483947
435,pointe-du-lac,46.2869,-72.6845,6.29,93,100,1.54,CA,1682483948
436,taltal,-25.4,-70.4833,17.73,81,27,1.13,CL,1682483949
437,howrah,22.5892,88.3103,32.0,51,40,0.0,IN,1682483720
438,lazaro cardenas,17.9583,-102.2,24.6,70,85,2.26,MX,1682483950
439,labuan,5.2767,115.2417,30.2,74,40,1.54,MY,1682483951
440,muisne,0.6,-80.0333,25.44,86,100,0.72,EC,1682483951
441,arvayheer,46.2639,102.775,7.25,14,12,7.83,MN,1682483952
442,kuala belait,4.5833,114.1833,31.09,71,92,3.42,BN,1682483741
443,shahritus,37.2637,68.1385,28.07,21,0,1.52,TJ,1682483953
444,gadzhiyevo,69.2551,33.3362,-3.35,83,78,1.28,RU,1682483954
445,port moresby,-9.4431,147.1797,30.68,70,40,7.72,PG,1682483955
446,kirakira,-10.4544,161.9205,28.23,71,100,0.18,SB,1682483955
447,nampula,-15.1165,39.2666,19.97,100,75,3.09,MZ,1682483956
448,jindabyne,-36.4167,148.6333,20.32,30,20,2.61,AU,1682483957
449,dem'yanovo,60.3511,47.0842,10.61,94,100,3.35,RU,1682483957
450,igarka,67.4667,86.5833,-2.07,94,100,6.54,RU,1682483958
451,xinyuan,37.3,99.0,10.06,10,48,8.94,CN,1682483959
452,taphan hin,16.2209,100.4198,35.54,53,70,4.7,TH,1682483959
453,loango,-4.6719,11.8312,24.81,94,20,2.06,CG,1682483961
454,san patricio,28.017,-97.5169,23.97,93,36,5.35,US,1682483961
455,yatou,37.15,122.3833,13.6,31,0,6.91,CN,1682483962
456,siran,40.1894,39.1267,10.47,48,45,1.86,TR,1682483963
457,harstad,68.799,16.5293,0.66,97,92,9.39,NO,1682483963
458,along,28.1667,94.7667,30.25,37,1,0.92,IN,1682483964
459,pointe-noire,-4.7761,11.8635,25.04,94,20,2.06,CG,1682483965
460,sambava,-14.2667,50.1667,25.46,87,81,1.68,MG,1682483965
461,huadian,42.9633,126.7478,12.73,24,15,2.18,CN,1682483966
462,salekhard,66.53,66.6019,-1.93,86,7,3.97,RU,1682483967
463,midvagur,62.0511,-7.1939,1.46,69,75,5.66,FO,1682483967
464,gulf shores,30.246,-87.7008,20.0,76,0,1.54,US,1682483968
465,broken hill,-31.95,141.4333,24.74,32,100,8.3,AU,1682483477
466,ongjin,37.9347,125.3619,11.71,50,8,8.68,KP,1682483969
467,pakse,15.1167,105.7833,31.19,57,96,1.97,LA,1682483971
468,krasnomayskiy,57.6194,34.4099,11.62,65,100,1.21,RU,1682483971
469,vilyuchinsk,52.9306,158.4028,7.15,70,27,6.98,RU,1682483973
470,kamaishi,39.2667,141.8833,12.61,99,100,3.7,JP,1682483973
471,knysna,-34.0363,23.0471,15.93,92,42,1.6,ZA,1682483975
472,port isabel,26.0734,-97.2086,24.02,92,0,3.6,US,1682483975
473,matiguas,12.8373,-85.4622,22.75,77,21,1.07,NI,1682483976
474,boguchany,58.3814,97.4531,2.05,64,100,4.2,RU,1682483977
475,tupancireta,-29.0806,-53.8358,14.89,97,96,2.12,BR,1682483977
476,chake chake,-5.2459,39.7666,27.41,78,93,5.35,TZ,1682483978
477,wenchang,30.904,118.4887,21.49,46,0,1.66,CN,1682483979
478,muli,2.9167,73.5667,28.93,74,60,3.67,MV,1682483980
479,armacao de buzios,-22.7469,-41.8817,23.03,91,3,4.16,BR,1682483981
480,coquimbo,-29.9533,-71.3436,14.85,88,100,1.54,CL,1682483596
481,pakokku,21.3333,95.1,38.45,21,0,0.88,MM,1682483982
482,sinabang,2.4803,96.3801,30.13,69,100,1.84,ID,1682483982
483,taksimo,56.3444,114.8794,4.72,40,49,0.2,RU,1682483983
484,strezhevoy,60.7333,77.5889,1.17,94,100,1.44,RU,1682483984
485,baiyin,36.5583,104.2081,19.59,15,0,8.03,CN,1682483953
486,akniste,56.1615,25.7478,8.07,93,52,2.29,LV,1682483985
487,hurghada,27.2574,33.8129,22.02,21,0,6.17,EG,1682483986
488,palikir - national government center,6.9248,158.1611,27.52,77,26,5.28,FM,1682483987
489,zhanaozen,43.3,52.8,22.63,19,100,4.04,KZ,1682483987
490,nadym,65.5333,72.5167,-2.13,88,65,4.11,RU,1682483988
491,yeppoon,-23.1333,150.7333,26.88,60,20,8.32,AU,1682483989
492,hotan,37.0997,79.9269,23.17,14,15,5.35,CN,1682483989
493,brookings,44.3114,-96.7984,6.19,45,100,5.66,US,1682483693
494,irtyshsk,53.3333,75.4572,20.71,29,8,6.63,KZ,1682483990
495,meadow lake,34.8014,-106.5436,12.66,27,76,6.44,US,1682483991
496,teguise,29.0605,-13.564,17.12,77,0,4.12,ES,1682483888
497,parintins,-2.6283,-56.7358,23.12,98,94,0.87,BR,1682483992
498,rawson,-43.3002,-65.1023,13.4,88,100,3.79,AR,1682483993
499,inarajan village,13.2736,144.7484,31.54,87,11,7.85,GU,1682483994
500,vernon,50.2581,-119.2691,10.74,57,96,2.57,CA,1682483515
501,karakol,42.4907,78.3936,10.21,48,5,1.59,KG,1682483995
502,guer,47.9062,-2.1231,9.97,94,100,3.71,FR,1682483995
503,palasa,18.7667,84.4167,32.56,47,94,2.87,IN,1682483996
504,maumere,-8.6199,122.2111,29.39,72,98,3.38,ID,1682483997
505,dhidhdhoo,6.8833,73.1,29.21,67,45,2.97,MV,1682483998
506,flying fish cove,-10.4217,105.6791,26.85,79,100,2.94,CX,1682483999
507,sola,-13.8833,167.55,27.22,73,54,0.53,VU,1682483999
508,cill airne,52.05,-9.5167,7.94,97,100,2.65,IE,1682484000
509,sisimiut,66.9395,-53.6735,0.64,99,100,3.23,GL,1682484001
510,an nuhud,12.7,28.4333,27.2,53,76,7.19,SD,1682484001
511,gornozavodsk,58.3758,58.3211,13.58,57,100,1.88,RU,1682484002
512,gilleleje,56.122,12.3106,6.04,72,47,7.15,DK,1682484003
513,santa ana,33.7456,-117.8678,17.73,82,40,2.06,US,1682483726
514,zemio,5.0314,25.1361,20.5,96,99,1.65,CF,1682484004
515,ban mai,7.2041,100.5451,32.05,65,90,5.16,TH,1682484005
516,chiras,35.4167,65.9823,11.73,34,0,2.77,AF,1682484006
517,aykhal,66.0,111.5,-3.47,86,100,4.88,RU,1682484008
518,altay,47.8667,88.1167,7.15,44,74,2.92,CN,1682484009
519,newman,37.3138,-121.0208,22.13,63,4,1.34,US,1682484010
520,nikolayevsk-on-amure,53.1406,140.73,2.26,97,100,2.19,RU,1682484011
521,port augusta,-32.5,137.7667,29.1,26,100,11.64,AU,1682484012
522,holyhead,53.3062,-4.6321,7.96,70,100,2.57,GB,1682484013
523,muroto-misakicho,33.2833,134.15,17.29,77,99,2.41,JP,1682484014
524,sanming,26.2486,117.6186,18.9,74,95,1.69,CN,1682484014
525,kiruna,67.8557,20.2251,-4.49,93,100,4.63,SE,1682484015
526,nagqu,31.5,92.0,1.26,42,45,1.97,CN,1682484016
527,castanos,26.7833,-101.4167,22.97,57,6,3.05,MX,1682483808
528,ozernyy,55.5802,32.4127,11.64,65,46,0.68,RU,1682484018
529,gargalianoi,37.0667,21.6333,14.64,87,97,2.59,GR,1682484018
530,westport,41.1415,-73.3579,8.79,72,0,2.57,US,1682484019
531,tofol,5.3248,163.0078,30.88,66,75,5.14,FM,1682484020
532,bubaque,11.2833,-15.8333,25.44,66,57,6.43,GW,1682484020
533,as suwayrah,32.9256,44.7758,26.88,20,0,4.42,IQ,1682484021
534,lata,40.1629,-8.3327,12.82,92,59,1.32,PT,1682484022
535,praia da vitoria,38.7333,-27.0667,18.14,82,20,6.66,PT,1682484023
536,monte patria,-30.6919,-70.9467,18.82,57,95,0.19,CL,1682483754
537,bloemfontein,-29.1211,26.214,6.71,93,0,1.54,ZA,1682484024
538,cabo san lucas,22.8909,-109.9124,25.61,68,78,6.04,MX,1682484025
539,tokar,18.4254,37.729,27.79,68,37,4.4,SD,1682484026
540,oriximina,-1.7656,-55.8661,22.99,96,87,0.73,BR,1682484026
541,puerto ayacucho,5.6639,-67.6236,22.81,94,99,0.96,VE,1682484027
542,portland,45.5234,-122.6762,14.46,67,76,0.89,US,1682483680
543,santa helena,-2.2311,-45.3,22.47,99,83,0.88,BR,1682484029
544,monteagudo,-19.8167,-63.9833,15.69,98,100,0.3,BO,1682484029
545,yinchuan,38.4681,106.2731,25.0,13,2,4.75,CN,1682484030
546,burao,9.5221,45.5336,24.51,64,61,6.48,SO,1682484031
547,roswell,34.0232,-84.3616,16.03,63,75,2.57,US,1682483874
548,mount gambier,-37.8333,140.7667,23.11,44,100,4.5,AU,1682484032
549,aripuana,-9.1667,-60.6333,21.78,99,37,0.07,BR,1682484033
550,hasaki,35.7333,140.8333,19.05,94,100,13.1,JP,1682483956
551,dedovichi,57.5517,29.9502,11.73,69,24,2.14,RU,1682484034
552,nova vicosa,-17.8919,-39.3719,23.41,88,4,0.19,BR,1682484035
553,vorkuta,67.5,64.0,-5.93,94,61,5.91,RU,1682484036
554,cedeira,43.6797,-8.0209,15.77,86,100,4.06,ES,1682484036
555,plastun,44.7561,136.2939,10.72,48,75,2.72,RU,1682484037
556,dryden,49.7833,-92.7503,-1.84,69,0,1.54,CA,1682484039
557,bandundu,-3.3167,17.3667,22.24,97,96,1.04,CD,1682484040
558,mazagao,-0.115,-51.2894,25.03,98,32,0.66,BR,1682484040
559,hammerfest,70.6634,23.6821,-2.75,80,75,2.57,NO,1682484041
560,rongelap,11.1635,166.8941,27.18,84,96,10.11,MH,1682484042
561,richards bay,-28.783,32.0377,20.4,89,4,1.27,ZA,1682483535
562,kocevje,45.6433,14.8633,7.54,96,30,0.39,SI,1682484043
563,yuzhno-kurilsk,44.0306,145.8556,5.3,94,100,12.03,RU,1682484044
564,santiago de cao,-7.9589,-79.2392,24.07,83,100,4.12,PE,1682484044
565,yen vinh,18.6667,105.6667,22.68,78,100,2.23,VN,1682484045
566,kourou,5.1552,-52.6478,24.03,92,99,2.84,GF,1682484046
567,kununurra,-15.7667,128.7333,34.99,43,70,2.57,AU,1682484046
568,suva,-18.1416,178.4415,28.71,74,40,3.6,FJ,1682483566
569,gamawa,12.1343,10.5396,27.13,27,30,0.15,NG,1682484048
570,las heras,-46.5419,-68.9359,5.9,86,48,0.75,AR,1682484037
571,taos,36.4072,-105.5731,3.78,82,0,2.57,US,1682484018
572,pangody,65.85,74.4859,-2.16,91,81,4.3,RU,1682484050
573,galesong,-5.3166,119.3661,32.01,71,47,2.65,ID,1682484050
574,dwarka,22.2394,68.9678,28.48,58,79,5.22,IN,1682484051
575,buta,2.7858,24.73,21.13,100,100,1.18,CD,1682484052
576,atlanta,33.749,-84.388,16.13,61,75,6.17,US,1682484015
577,opuwo,-18.0607,13.84,20.12,57,3,1.36,NA,1682484053
578,pokhara,28.2333,83.9833,28.46,20,61,3.86,NP,1682484054
579,petauke,-14.2426,31.3253,15.8,82,10,2.71,ZM,1682484055
580,monte santo,-10.4378,-39.3328,19.19,98,66,1.97,BR,1682484056
